[
  {
    "id": 1,
    "price": 250,
    "address": "11 rue de Fauboug",
    "zipCode": "75010",
    "country": "France",
    "lat": 1450001,
    "lng": 15340,
    "createdDate": 1610571230986,
    "name": "Studio de rêve"
  },
  {
    "id": 2,
    "price": 150,
    "address": "18 rue de la bruyère",
    "zipCode": "93800",
    "country": "France",
    "lat": 1450001,
    "lng": 15340,
    "createdDate": 1610571235888,
    "name": "Appartement de luxe"
  },
  {
    "id": 3,
    "price": 50,
    "address": "15 rue de la roquette",
    "zipCode": "75011",
    "country": "France",
    "lat": 1450001,
    "lng": 15340,
    "createdDate": 1613424426148,
    "name": "Appartement de fonction"
  },
  {
    "name": "Studio pour les amoureux",
    "price": "199",
    "address": "11 rue des bougard",
    "zipCode": "95100",
    "country": "France",
    "createdDate": 1630662101273,
    "id": "2335aa5e-de43-494c-888f-bde795b1e408",
    "lat": "11111",
    "lng": "1111"
  },
  {
    "name": "New appartement",
    "price": "150",
    "address": "11",
    "zipCode": "95100",
    "country": "fr",
    "createdDate": 1630662904060,
    "id": "12b3faa6-3dce-464a-ae08-e660bbaaad99",
    "lat": "11111",
    "lng": "1111"
  },
  {
    "name": "Appartement 2",
    "price": "100",
    "address": "11",
    "zipCode": "11",
    "country": "fr",
    "createdDate": 1630663700843,
    "id": "cc104cb9-24a3-4cd4-9339-66da58445bbc",
    "lat": "11111",
    "lng": "1111"
  },
  {
    "name": "Appartement 3",
    "price": "190",
    "address": "11 rue des neuves",
    "zipCode": "95100",
    "country": "France",
    "createdDate": 1630664347802,
    "id": "d84ebf7e-7b03-40d7-8888-f8694dd3d309",
    "lat": "11111",
    "lng": "1111"
  },
  {
    "name": "ddd",
    "price": "10",
    "address": "10",
    "zipCode": "10",
    "country": "10",
    "createdDate": 1630665259532,
    "id": "07ec5127-4d79-48f4-bf42-9d9786fd7a31",
    "lat": "11111",
    "lng": "1111"
  },
  {
    "name": "ddd",
    "price": "10",
    "address": "10",
    "zipCode": "10",
    "country": "10",
    "createdDate": 1630665452409,
    "id": "866d03db-0728-405f-ade9-35f29fd988f3",
    "lat": "11111",
    "lng": "1111"
  },
  {
    "name": "DD",
    "price": "10",
    "address": "10",
    "zipCode": "10",
    "country": "10",
    "createdDate": 1630673581503,
    "id": "481d0655-bf0e-4fe7-8e7d-a3c373d77390",
    "lat": "11111",
    "lng": "1111"
  },
  {
    "name": "New Place",
    "price": "10",
    "address": "101",
    "zipCode": "101",
    "country": "10",
    "createdDate": 1630673612885,
    "id": "7bdb222a-79fc-4103-b838-824b500fef07",
    "lat": "11111",
    "lng": "1111"
  },
  {
    "name": "10",
    "price": "101",
    "address": "101",
    "zipCode": "10",
    "country": "10",
    "createdDate": 1630674747655,
    "id": "3b18e6b3-a64a-4cd2-bc24-ea85ba69521b",
    "lat": "11111",
    "lng": "1111"
  },
  {
    "name": "Nid douillet",
    "address": "15 rue de la paix",
    "zipCode": "9477",
    "country": "Argentine",
    "createdDate": 1630682041845,
    "id": "7dce9370-1d53-49ec-bb8a-fc5cab776e47",
    "lat": "11111",
    "lng": "1111"
  },
  {
    "name": "frzettrtg",
    "address": "541",
    "zipCode": "27587",
    "country": "england",
    "createdDate": 1630682068352,
    "id": "ed8c2dd8-d4d4-4d99-b749-3b48dabc77a2",
    "lat": "11111",
    "lng": "1111"
  },
  {
    "name": "frzettrtg",
    "address": "541",
    "zipCode": "27587",
    "country": "england",
    "createdDate": 1630682114446,
    "id": "b8f04a6e-1648-415e-9052-8275b53ec2af",
    "lat": "11111",
    "lng": "1111"
  },
  {
    "name": "frzettrtg",
    "address": "541",
    "zipCode": "27587",
    "country": "england",
    "createdDate": 1630682136229,
    "id": "5a521dfb-fbaf-400f-b56f-dba03961ae10",
    "lat": "11111",
    "lng": "1111"
  },
  {
    "name": "frzettrtg",
    "address": "541",
    "zipCode": "27587",
    "country": "england",
    "createdDate": 1630682158944,
    "id": "3b457e4c-deba-40e7-af8e-5d100404785d",
    "lat": "11111",
    "lng": "1111"
  },
  {
    "name": "frzettrtg",
    "address": "541",
    "zipCode": "27587",
    "country": "england",
    "createdDate": 1630682332432,
    "id": "e49b1a40-c01e-4683-9cb1-c8166ac8bf79",
    "lat": "11111",
    "lng": "1111"
  },
  {
    "name": "frzettrtg",
    "address": "541",
    "zipCode": "27587",
    "country": "england",
    "createdDate": 1630682388033,
    "id": "92c37483-70a1-4d47-9567-af19fadd2e7b",
    "lat": "11111",
    "lng": "1111"
  },
  {
    "name": "frzettrtg",
    "address": "541",
    "zipCode": "27587",
    "country": "bulgarie",
    "createdDate": 1630682411619,
    "id": "5e5dc389-cd9d-49ec-92eb-92585a75694d",
    "lat": "11111",
    "lng": "1111"
  },
  {
    "name": "frzettrtg",
    "address": "541",
    "zipCode": "27587",
    "country": "bulgariezéedfzef",
    "createdDate": 1630682479568,
    "id": "78e56bc3-4e06-403a-9d23-9594e7f3508f",
    "lat": "11111",
    "lng": "1111"
  },
  {
    "name": "frzettrtg",
    "address": "541",
    "zipCode": "27587",
    "country": "bulgariezéedfzef",
    "createdDate": 1630683219546,
    "id": "93f2cd5b-939d-4a42-9c91-2de866515368",
    "lat": "11111",
    "lng": "1111"
  },
  {
    "name": "frzettrtg",
    "address": "541",
    "zipCode": "27587",
    "country": "BLABLABLA",
    "createdDate": 1630683286170,
    "id": "dd560762-99b6-41d9-9cab-f9df5dd076e0",
    "lat": "11111",
    "lng": "1111"
  },
  {
    "name": "frzettrtg",
    "address": "541",
    "zipCode": "27587",
    "country": "BLABLABLA",
    "createdDate": 1630683399834,
    "id": "9bf275fd-1fe9-48bd-9977-2613303063ad",
    "lat": "11111",
    "lng": "1111"
  },
  {
    "name": "CASA BLANCA",
    "address": "15 rue flamme",
    "zipCode": "98700",
    "country": "Hongrie",
    "createdDate": 1630683454862,
    "id": "2caf1950-d315-4b57-b28f-3b9c4bce4d1f",
    "lat": "11111",
    "lng": "1111"
  }
]